{
	"locations": [
		{
			"place":"New York City",
			"lnglat": {"lng":-73.9712, "lat":40.7741}
		},
		{
			"place":"Kilimanjaro International",
			"lnglat": {"lng":37.064167, "lat":-3.423879}
		},
		{
			"place":"Arusha",
			"lnglat": {"lng":37.051621, "lat":-3.374359 }
		},
		{
			"place":"Arusha",
			"lnglat": {"lng":36.939110 , "lat":-3.388957 }
		},
		{
			"place":"Arusha",
			"lnglat": {"lng":36.864205, "lat":-3.373160 }
		},
		{
			"place":"Base of Mt. Kilimanjaro",
			"lnglat": {"lng":37.043216 , "lat":-3.058855 }
		},
		{
			"place":"Shira Service Road",
			"lnglat": {"lng":37.230648  , "lat":-2.986415}
		},
		{
			"place":"Shira Service Road",
			"lnglat": {"lng":37.231421, "lat":-2.990748 }
		},
		{
			"place":"Shira Camp 1",
			"lnglat": {"lng":37.229255, "lat":-3.013150}
		},
		{
			"place":"12000 ft.",
			"lnglat": {"lng":37.258673 , "lat":-3.034383}
		},
		{
			"place":"13000 ft.",
			"lnglat": {"lng":37.278821 , "lat":-3.043170}
		},
		{
			"place":"13500 ft.",
			"lnglat": {"lng":37.290601, "lat":-3.043041 }
		}
	]
}